Nr Etime Raw dBm dBmW/m2 sum:dBmW/m2 loop X Y Z long lat droneData: lat long alt pitch yaw roll heading
1 0.00112199783325 -130.33934021 -127.69229126 -89.9322967529 -64.3530259279 2 nan nan nan nan nan 0 0 0 0 0 0 0 
2 0.0492808818817 -125.83807373 -123.19102478 -85.4310302734 -65.5551610559 3 nan nan nan nan nan 0 0 0 0 0 0 0 
3 0.15597987175 -106.218605042 -103.571556091 -65.8115539551 -65.8112626832 1 nan nan nan nan nan 0 0 0 0 0 0 0 
4 0.269095897675 -105.13785553 -102.49080658 -64.7308044434 -63.6993775056 2 31.762961008 -45.4719924712 21.0560280779 17.642931159 59.856639299 0 0 0 0 0 0 0 
5 0.367043972015 -105.809402466 -103.162353516 -64.7308044434 -63.6993775056 3 31.762961008 -45.4719924712 21.0560280779 17.642931159 59.856639299 0 0 0 0 0 0 0 
6 0.469069957733 -103.453742981 -100.806694031 -63.0466957092 -61.7722556573 1 31.762961008 -45.4719924712 21.0560280779 17.642931159 59.856639299 0 0 0 0 0 0 0 
7 0.59005689621 -103.556640625 -100.909591675 -63.1495933533 -61.2459252048 2 31.7629614967 -45.4719931708 20.9585443894 17.642931159 59.856639299 0 0 0 0 0 0 0 
8 0.693894863129 -106.565193176 -103.918144226 -66.1581420898 -61.3421549686 3 31.7629614967 -45.4719931708 20.9585443894 17.642931159 59.856639299 0 0 0 0 0 0 0 
9 0.782274007797 -106.808021545 -104.160972595 -66.400970459 -62.307206289 1 31.7629614967 -45.4719931708 20.9585443894 17.642931159 59.856639299 0 0 0 0 0 0 0 
10 0.88933801651 -105.979026794 -103.331977844 -66.400970459 -62.307206289 2 31.7629631394 -45.4719955226 20.6308217863 17.642931159 59.856639299 0 0 0 0 0 0 0 
11 1.00712990761 -105.937889099 -103.290840149 -65.5308380127 -63.4137259228 3 31.7629631394 -45.4719955226 20.6308217863 17.642931159 59.856639299 0 0 0 0 0 0 0 
12 1.09425783157 -106.148468018 -103.501419067 -65.7414245605 -63.2272438257 1 31.7629619923 -45.4719938804 20.8596645116 17.642931159 59.856639299 0 0 0 0 0 0 0 
13 1.20338392258 -105.810752869 -103.163703918 -65.4037017822 -63.1686124379 2 31.7629619923 -45.4719938804 20.8596645116 17.642931159 59.856639299 0 0 0 0 0 0 0 
14 1.30684685707 -106.773895264 -104.126846313 -65.4037017822 -63.1686124379 3 32.1994057033 -45.9986308334 20.8596705157 17.642935341 59.856634282 0 0 0 0 0 0 0 
15 1.42386889458 -106.346717834 -103.699668884 -65.939666748 -63.4819018894 1 32.1994058182 -45.9986309975 20.8370605794 17.642935341 59.856634282 0 0 0 0 0 0 0 
16 1.52022790909 -106.080383301 -103.433334351 -65.6733398438 -63.5891569393 2 32.1994058182 -45.9986309975 20.8370605794 17.642935341 59.856634282 0 0 0 0 0 0 0 
17 1.62102293968 -105.941619873 -103.294570923 -65.534576416 -63.3238147784 3 32.1994058182 -45.9986309975 20.8370605794 17.642935341 59.856634282 0 0 0 0 0 0 0 
18 1.72760486603 -105.728218079 -103.081169128 -65.3211669922 -63.1192327991 1 32.1994055885 -45.9986306694 20.8822679756 17.642935341 59.856634282 0 0 0 0 0 0 0 
19 1.84215688705 -104.989387512 -102.342338562 -64.5823364258 -62.7209207129 2 32.1994055885 -45.9986306694 20.8822679756 17.642935341 59.856634282 0 0 0 0 0 0 0 
20 1.93969583511 -106.757804871 -104.11075592 -66.3507537842 -62.9155961733 3 32.1994053732 -45.9986303618 20.9246390653 17.642935341 59.856634282 0 0 0 0 0 0 0 
21 2.04344701767 -106.964546204 -104.317497253 -66.5574951172 -63.2516500855 1 32.1994053732 -45.9986303618 20.9246390653 17.642935341 59.856634282 0 0 0 0 0 0 0 
22 2.14890694618 -105.945617676 -103.298568726 -65.5385742188 -63.7172784453 2 32.1994053732 -45.9986303618 20.9246390653 17.642935341 59.856634282 0 0 0 0 0 0 0 
23 2.26333785057 -107.175811768 -104.528762817 -66.7687683105 -63.8334035126 3 32.4513541719 -44.056977808 20.8963744848 17.642915029 59.856636492 0 0 0 0 0 0 0 
24 2.35619997978 -106.404769897 -103.757720947 -66.7687683105 -63.8334035126 1 32.4513541719 -44.056977808 20.8963744848 17.642915029 59.856636492 0 0 0 0 0 0 0 
25 2.46126103401 -106.158424377 -103.511375427 -65.751373291 -63.7455151177 2 32.4513541719 -44.056977808 20.8963744848 17.642915029 59.856636492 0 0 0 0 0 0 0 
26 2.56546497345 -107.319793701 -104.672744751 -65.751373291 -63.7455151177 3 32.4513531012 -44.0569763544 21.1054431429 17.642915029 59.856636492 0 0 0 0 0 0 0 
27 2.68111681938 -105.259788513 -102.612739563 -64.8527374268 -63.2957017646 1 32.4513531012 -44.0569763544 21.1054431429 17.642915029 59.856636492 0 0 0 0 0 0 0 
28 2.78599405289 -106.559989929 -103.912940979 -66.1529388428 -63.4173749154 2 32.4513531012 -44.0569763544 21.1054431429 17.642915029 59.856636492 0 0 0 0 0 0 0 
29 2.87912487984 -106.134773254 -103.912940979 -66.1529388428 -63.4173749154 3 32.4513534919 -44.0569768847 21.0291609891 17.642915029 59.856636492 0 0 0 0 0 0 0 
30 2.98577690125 -105.283805847 -102.636756897 -65.727722168 -63.1230878187 1 32.4513534919 -44.0569768847 21.0291609891 17.642915029 59.856636492 0 0 0 0 0 0 0 
31 3.09219002724 -106.312408447 -102.636756897 -65.9053649902 -63.0695506093 2 32.4513534919 -44.0569768847 21.0291609891 17.642915029 59.856636492 0 0 0 0 0 0 0 
32 3.19735097885 -105.817687988 -103.170639038 -65.4106445312 -62.971426558 3 32.4513537523 -44.0569772383 20.9783123437 17.642915029 59.856636492 0 0 0 0 0 0 0 
33 3.30328893661 -104.161987305 -101.514938354 -63.754940033 -62.4332473128 1 24.6106498826 -51.3416563168 20.9783318771 17.643009366 59.856688546 0 0 0 0 0 0 0 
34 3.42021083832 -107.414901733 -104.767852783 -67.0078582764 -62.6154044158 2 24.6106498826 -51.3416563168 20.9783318771 17.643009366 59.856688546 0 0 0 0 0 0 0 
35 3.51521801949 -106.277984619 -103.630935669 -65.8709411621 -62.733024592 3 24.6106497455 -51.3416560308 21.0136352622 17.643009366 59.856688546 0 0 0 0 0 0 0 
36 3.61496782303 -107.003829956 -104.356781006 -65.8709411621 -62.733024592 1 24.6106497455 -51.3416560308 21.0136352622 17.643009366 59.856688546 0 0 0 0 0 0 0 
37 3.71816492081 -107.526351929 -104.879302979 -66.596786499 -64.0545111752 2 24.610650958 -51.3416585602 20.7014584627 17.643009366 59.856688546 0 0 0 0 0 0 0 
38 3.83811998367 -106.135009766 -103.487960815 -65.7279663086 -64.0186650454 3 24.610650958 -51.3416585602 20.7014584627 17.643009366 59.856688546 0 0 0 0 0 0 0 
39 3.93757390976 -105.30418396 -103.487960815 -65.7279663086 -64.0186650454 1 24.610650958 -51.3416585602 20.7014584627 17.643009366 59.856688546 0 0 0 0 0 0 0 
40 4.04719305038 -106.597335815 -103.950286865 -66.1902923584 -63.1523507815 2 24.61064974 -51.3416560192 21.015062249 17.643009366 59.856688546 0 0 0 0 0 0 0 
41 4.14116096497 -107.259811401 -104.612762451 -66.1902923584 -63.1523507815 3 24.61064974 -51.3416560192 21.015062249 17.643009366 59.856688546 0 0 0 0 0 0 0 
42 4.2436568737 -107.259811401 -105.43547821 -67.6754760742 -64.4374222725 1 24.61064974 -51.3416560192 21.015062249 17.643009366 59.856688546 0 0 0 0 0 0 0 
43 4.36099791527 -105.382484436 -102.735435486 -64.9754333496 -63.8109089203 2 13.8979551296 -56.3474496395 20.5291300911 17.643088192 59.856770916 0 0 0 0 0 0 0 
44 4.46577000618 -107.654243469 -105.007194519 -67.2471923828 -63.9016467984 3 13.8979551296 -56.3474496395 20.5291300911 17.643088192 59.856770916 0 0 0 0 0 0 0 
45 4.55611681938 -106.114990234 -105.007194519 -67.2471923828 -63.9016467984 1 13.8979545069 -56.3474471147 20.8130559682 17.643088192 59.856770916 0 0 0 0 0 0 0 
46 4.66557502747 -106.299980164 -103.652931213 -65.8929290771 -63.7973655274 2 13.8979545069 -56.3474471147 20.8130559682 17.643088192 59.856770916 0 0 0 0 0 0 0 
47 4.7800579071 -106.634536743 -103.987487793 -65.8929290771 -63.7973655274 3 13.8979545069 -56.3474471147 20.8130559682 17.643088192 59.856770916 0 0 0 0 0 0 0 
48 4.87300205231 -102.6147995 -99.9677505493 -62.2077522278 -61.5717882693 1 13.897954259 -56.3474461098 20.9260670654 17.643088192 59.856770916 0 0 0 0 0 0 0 
49 4.97706890106 -106.199234009 -99.9677505493 -65.7921905518 -61.5577383292 2 13.897954259 -56.3474461098 20.9260670654 17.643088192 59.856770916 0 0 0 0 0 0 0 
50 5.08224487305 -108.900260925 -103.552185059 -68.4932098389 -61.7280023186 3 13.897954259 -56.3474461098 20.9260670654 17.643088192 59.856770916 0 0 0 0 0 0 0 
