Nr Etime Raw dBm dBmW/m2 sum:dBmW/m2 loop X Y Z long lat droneData: lat long alt pitch yaw roll heading
1 0.000504970550537 -75.7294006348 -73.7212524414 -34.8500061035 -33.0187232695 2 -6.19787830483 -95.449801873 20.1664335442 17.643536746 59.856857875 0 0 0 0 0 0 0 
2 0.0844719409943 -80.6274337769 -78.6192855835 -34.8500061035 -33.0187232695 2 -6.19787830483 -95.449801873 20.1664335442 17.643536746 59.856857875 0 0 0 0 0 0 0 
3 0.183106899261 -74.7465286255 -72.7383804321 -39.7480392456 -34.4452323576 2 -6.19787826202 -95.4498012136 20.2102035638 17.643536746 59.856857875 0 0 0 0 0 0 0 
4 0.282528877258 -74.6730728149 -72.6649246216 -33.8671340942 -32.7115623608 2 -6.19787826202 -95.4498012136 20.2102035638 17.643536746 59.856857875 0 0 0 0 0 0 0 
5 0.395149946213 -74.7042236328 -72.6649246216 -33.7936782837 -32.2549426473 2 -6.19787826202 -95.4498012136 20.2102035638 17.643536746 59.856857875 0 0 0 0 0 0 0 
6 0.502444028854 -74.7262878418 -72.7181396484 -33.8248291016 -31.4427324067 2 -6.19787839186 -95.4498032132 20.0774614647 17.643536746 59.856857875 0 0 0 0 0 0 0 
7 0.597393035889 -74.7802200317 -72.7720718384 -33.8468933105 -31.4360841521 2 -6.19787839186 -95.4498032132 20.0774614647 17.643536746 59.856857875 0 0 0 0 0 0 0 
8 0.714640855789 -74.8358840942 -72.8277359009 -33.9008255005 -31.4716756026 2 -6.19787839186 -95.4498032132 20.0774614647 17.643536746 59.856857875 0 0 0 0 0 0 0 
9 0.81521487236 -74.7846450806 -72.8277359009 -33.956489563 -31.5153356129 2 -6.19787815704 -95.4497995969 20.3175347168 17.643536746 59.856857875 0 0 0 0 0 0 0 
10 0.917167901993 -74.7022628784 -72.7764968872 -33.9052505493 -31.5351023834 2 -6.19787815704 -95.4497995969 20.3175347168 17.643536746 59.856857875 0 0 0 0 0 0 0 
11 1.02860188484 -74.650970459 -72.6428222656 -33.8228683472 -31.5085640376 2 -4.57442411305 -93.3446179145 20.2045344781 17.643511173 59.856848454 0 0 0 0 0 0 0 
12 1.12451505661 -74.7854003906 -72.7772521973 -33.7715759277 -31.4469289076 2 -4.57442411305 -93.3446179145 20.2045344781 17.643511173 59.856848454 0 0 0 0 0 0 0 
13 1.23828005791 -74.7578353882 -72.7496871948 -33.9060058594 -31.4471723576 2 -4.57442411305 -93.3446179145 20.2045344781 17.643511173 59.856848454 0 0 0 0 0 0 0 
14 1.3417840004 -74.682182312 -72.6740341187 -33.8027877808 -31.4763653325 2 -4.57442411305 -93.3446179145 20.2045344781 17.643511173 59.856848454 0 0 0 0 0 0 0 
15 1.44320702553 -74.6706542969 -72.6625061035 -33.7912597656 -31.4382136071 2 -4.57442426904 -93.3446210975 19.9884557684 17.643511173 59.856848454 0 0 0 0 0 0 0 
16 1.55659604073 -74.6964187622 -72.6882705688 -33.7912597656 -31.4382136071 2 -4.57442426904 -93.3446210975 19.9884557684 17.643511173 59.856848454 0 0 0 0 0 0 0 
17 1.6477689743 -74.8171157837 -72.8089675903 -33.817024231 -31.462129464 2 -4.57442428026 -93.3446213265 19.9729135721 17.643511173 59.856848454 0 0 0 0 0 0 0 
18 1.7563328743 -74.8202056885 -72.8089675903 -33.9377212524 -31.462129464 2 -4.57442428026 -93.3446213265 19.9729135721 17.643511173 59.856848454 0 0 0 0 0 0 0 
19 1.86959886551 -74.6729431152 -72.6647949219 -33.9408111572 -31.5121429162 2 -4.57442428026 -93.3446213265 19.9729135721 17.643511173 59.856848454 0 0 0 0 0 0 0 
20 1.97735404968 -74.6483764648 -72.6402282715 -33.7689819336 -31.4475255638 2 -4.57442409062 -93.3446174568 20.2356003768 17.643511173 59.856848454 0 0 0 0 0 0 0 
21 2.06271386147 -74.7431869507 -72.7350387573 -33.7689819336 -31.4475255638 2 -2.44040158143 -92.3832532553 20.2355851064 17.643495833 59.856831964 0 0 0 0 0 0 0 
22 2.17829990387 -74.676071167 -72.6679229736 -33.8637924194 -31.4227975764 2 -2.44040158143 -92.3832532553 20.2355851064 17.643495833 59.856831964 0 0 0 0 0 0 0 
23 2.29093384743 -74.638168335 -72.6300201416 -33.7587738037 -31.4203748083 2 -2.44040160754 -92.3832542437 20.1677947226 17.643495833 59.856831964 0 0 0 0 0 0 0 
24 2.39840698242 -74.5243911743 -72.516242981 -33.7587738037 -31.4203748083 2 -2.44040160754 -92.3832542437 20.1677947226 17.643495833 59.856831964 0 0 0 0 0 0 0 
25 2.49238085747 -74.6403121948 -72.516242981 -33.6449966431 -31.3469146328 2 -2.4404015439 -92.3832518346 20.3330318856 17.643495833 59.856831964 0 0 0 0 0 0 0 
26 2.60148286819 -74.6731033325 -72.6649551392 -33.7609176636 -31.3352774143 2 -2.4404015439 -92.3832518346 20.3330318856 17.643495833 59.856831964 0 0 0 0 0 0 0 
27 2.70377993584 -74.6698303223 -72.6616821289 -33.790435791 -31.3960309922 2 -2.4404015439 -92.3832518346 20.3330318856 17.643495833 59.856831964 0 0 0 0 0 0 0 
28 2.80865097046 -74.5293807983 -72.521232605 -33.790435791 -31.3960309922 2 -2.44040158687 -92.3832534611 20.2214722658 17.643495833 59.856831964 0 0 0 0 0 0 0 
29 2.90249991417 -74.5751800537 -72.5670318604 -33.6499862671 -31.3580632126 2 -2.44040158687 -92.3832534611 20.2214722658 17.643495833 59.856831964 0 0 0 0 0 0 0 
30 3.01005506516 -74.4840698242 -72.4759216309 -33.604675293 -31.264224209 2 -1.00075969049 -92.7729037946 20.2214775683 17.643495991 59.856818479 0 0 0 0 0 0 0 
31 3.1247279644 -74.5316925049 -72.4759216309 -33.604675293 -31.2649944492 2 -1.00075972908 -92.7729073717 19.9771509935 17.643495991 59.856818479 0 0 0 0 0 0 0 
32 3.22948002815 -74.612953186 -72.6048049927 -33.7335586548 -31.2772541066 2 -1.00075972908 -92.7729073717 19.9771509935 17.643495991 59.856818479 0 0 0 0 0 0 0 
33 3.33758807182 -74.815612793 -72.8074645996 -33.9362182617 -31.3851660588 2 -1.00075973153 -92.7729075991 19.9616241804 17.643495991 59.856818479 0 0 0 0 0 0 0 
34 3.44171690941 -74.5479888916 -72.5398406982 -33.9362182617 -31.3851660588 2 -1.00075973153 -92.7729075991 19.9616241804 17.643495991 59.856818479 0 0 0 0 0 0 0 
35 3.53546500206 -74.592010498 -72.5398406982 -33.6685943604 -31.3908888576 2 -1.00075973153 -92.7729075991 19.9616241804 17.643495991 59.856818479 0 0 0 0 0 0 0 
36 3.65427088737 -74.6274642944 -72.6193161011 -33.7480697632 -31.3239102666 2 -1.0007597148 -92.7729060482 20.0675514456 17.643495991 59.856818479 0 0 0 0 0 0 0 
37 3.75404691696 -74.5728378296 -72.6193161011 -33.7480697632 -31.3239102666 2 -1.0007597148 -92.7729060482 20.0675514456 17.643495991 59.856818479 0 0 0 0 0 0 0 
38 3.85505199432 -74.6203231812 -72.6121749878 -33.6934432983 -31.3323189711 2 -1.0007597148 -92.7729060482 20.0675514456 17.643495991 59.856818479 0 0 0 0 0 0 0 
39 3.95832085609 -74.5921173096 -72.5839691162 -33.7409286499 -31.3417386275 2 -1.00075972261 -92.7729067722 20.0181035495 17.643495991 59.856818479 0 0 0 0 0 0 0 
40 4.05817985535 -74.5715942383 -72.5634460449 -33.692199707 -31.3295856125 2 -1.38774126451 -93.0098146083 20.0181070961 17.643499406 59.856821327 0 0 0 0 0 0 0 
41 4.18341803551 -74.5106201172 -72.5024719238 -33.692199707 -31.3295856125 2 -1.38774126451 -93.0098146083 20.0181070961 17.643499406 59.856821327 0 0 0 0 0 0 0 
42 4.26573204994 -74.5638580322 -72.5557098389 -33.6312255859 -31.2928331695 2 -1.38774131554 -93.0098180286 19.7850881105 17.643499406 59.856821327 0 0 0 0 0 0 0 
43 4.38004493713 -74.6128616333 -72.6047134399 -33.684463501 -31.2835203645 2 -1.38774131554 -93.0098180286 19.7850881105 17.643499406 59.856821327 0 0 0 0 0 0 0 
44 4.48872089386 -74.6758422852 -72.6676940918 -33.7334671021 -31.297044287 2 -1.38774131554 -93.0098180286 19.7850881105 17.643499406 59.856821327 0 0 0 0 0 0 0 
45 4.59258294106 -74.6504745483 -72.642326355 -33.7964477539 -31.3520366301 2 -1.38774128647 -93.00981608 19.9178388122 17.643499406 59.856821327 0 0 0 0 0 0 0 
46 4.68666386604 -74.56980896 -72.5616607666 -33.7710800171 -31.3812377371 2 -1.38774128647 -93.00981608 19.9178388122 17.643499406 59.856821327 0 0 0 0 0 0 0 
47 4.80137395859 -74.7895202637 -72.7813720703 -33.6904144287 -31.3665687911 2 -1.38774123822 -93.0098128463 20.1381464994 17.643499406 59.856821327 0 0 0 0 0 0 0 
48 4.90575289726 -74.8346252441 -72.8264770508 -33.9101257324 -31.4030462844 2 -1.38774123822 -93.0098128463 20.1381464994 17.643499406 59.856821327 0 0 0 0 0 0 0 
49 5.00414705276 -74.6921386719 -72.6839904785 -33.9552307129 -31.4632029083 2 -0.182643122211 -92.8939603514 20.1381446495 17.643495065 59.856811044 0 0 0 0 0 0 0 
50 5.11989092827 -74.7900009155 -72.7818527222 -33.8127441406 -31.5062768262 2 -0.182643128439 -92.8939635191 19.9220662105 17.643495065 59.856811044 0 0 0 0 0 0 0 
51 5.21848297119 -74.6575469971 -72.6493988037 -33.9106063843 -31.5064356914 2 -0.182643128439 -92.8939635191 19.9220662105 17.643495065 59.856811044 0 0 0 0 0 0 0 
52 5.331387043 -74.5633544922 -72.5552062988 -33.7781524658 -31.4475068165 2 -0.182643128439 -92.8939635191 19.9220662105 17.643495065 59.856811044 0 0 0 0 0 0 0 
53 5.43020892143 -74.5831451416 -72.5749969482 -33.6839599609 -31.4033161496 2 -0.182643113988 -92.8939561689 20.4234430537 17.643495065 59.856811044 0 0 0 0 0 0 0 
54 5.53348207474 -74.6001739502 -72.5749969482 -33.7037506104 -31.3359708269 2 -0.182643113988 -92.8939561689 20.4234430537 17.643495065 59.856811044 0 0 0 0 0 0 0 
55 5.63470101357 -74.6193695068 -72.6112213135 -33.7399749756 -31.3358449856 2 -0.182643113988 -92.8939561689 20.4234430537 17.643495065 59.856811044 0 0 0 0 0 0 0 
56 5.74887704849 -74.7452316284 -72.7370834351 -33.7399749756 -31.3358449856 2 -0.182643109958 -92.8939541194 20.563249457 17.643495065 59.856811044 0 0 0 0 0 0 0 
57 5.85124588013 -74.565826416 -72.5576782227 -33.8658370972 -31.3889774879 2 -0.182643109958 -92.8939541194 20.563249457 17.643495065 59.856811044 0 0 0 0 0 0 0 
58 5.95535898209 -74.5170593262 -72.5089111328 -33.6376647949 -31.3421752155 2 -0.182643109958 -92.8939541194 20.563249457 17.643495065 59.856811044 0 0 0 0 0 0 0 
59 6.07043385506 -74.5699920654 -72.5618438721 -33.6376647949 -31.3421752155 2 2.39468011376 -91.4094280451 20.4446019741 17.643473265 59.856791864 0 0 0 0 0 0 0 
60 6.15305495262 -74.5767822266 -72.5618438721 -33.6905975342 -31.2858251542 2 2.39468011376 -91.4094280451 20.4446019741 17.643473265 59.856791864 0 0 0 0 0 0 0 
61 6.26821398735 -74.5885696411 -72.5804214478 -33.7091751099 -31.3134336137 2 2.3946801303 -91.4094286765 20.4008334114 17.643473265 59.856791864 0 0 0 0 0 0 0 
62 6.37489199638 -74.5881881714 -72.580039978 -33.7091751099 -31.3134336137 2 2.3946801303 -91.4094286765 20.4008334114 17.643473265 59.856791864 0 0 0 0 0 0 0 
63 6.48070907593 -74.7612304688 -72.7530822754 -33.7087936401 -31.3195056506 2 2.3946801303 -91.4094286765 20.4008334114 17.643473265 59.856791864 0 0 0 0 0 0 0 
64 6.57246899605 -74.7244796753 -72.7163314819 -33.8818359375 -31.3794802697 2 2.39468006572 -91.4094262116 20.5717052428 17.643473265 59.856791864 0 0 0 0 0 0 0 
65 6.689661026 -74.6254730225 -72.6173248291 -33.845085144 -31.4250144896 2 2.39468006572 -91.4094262116 20.5717052428 17.643473265 59.856791864 0 0 0 0 0 0 0 
66 6.79471802711 -74.6637649536 -72.6556167603 -33.7460784912 -31.4379668232 2 2.39468006572 -91.4094262116 20.5717052428 17.643473265 59.856791864 0 0 0 0 0 0 0 
67 6.89636206627 -74.6934127808 -72.6852645874 -33.7843704224 -31.4058564633 2 2.39468024345 -91.4094329958 20.1014186195 17.643473265 59.856791864 0 0 0 0 0 0 0 
68 6.99154496193 -74.6185150146 -72.6103668213 -33.8140182495 -31.395704573 2 2.39468024345 -91.4094329958 20.1014186195 17.643473265 59.856791864 0 0 0 0 0 0 0 
69 7.11251187325 -74.6399154663 -72.6317672729 -33.7391204834 -31.3933448006 2 -0.224248084231 -92.0482674788 20.2638279674 17.643486616 59.856813331 0 0 0 0 0 0 0 
70 7.21512794495 -74.7007980347 -72.6926498413 -33.8214035034 -31.387796375 2 -0.224248084231 -92.0482674788 20.2638279674 17.643486616 59.856813331 0 0 0 0 0 0 0 
71 7.31685185432 -74.6311340332 -72.6229858398 -33.8214035034 -31.387796375 2 -0.224248084231 -92.0482674788 20.2638279674 17.643486616 59.856813331 0 0 0 0 0 0 0 
72 7.42370200157 -74.682975769 -72.6748275757 -33.8035812378 -31.4064336238 2 -0.224248092827 -92.0482710073 20.0209299553 17.643486616 59.856813331 0 0 0 0 0 0 0 
73 7.52773284912 -74.7011413574 -72.6929931641 -33.8035812378 -31.4064336238 2 -0.224248092827 -92.0482710073 20.0209299553 17.643486616 59.856813331 0 0 0 0 0 0 0 
74 7.62351989746 -74.7798461914 -72.771697998 -33.8217468262 -31.4065465217 2 -0.224248092827 -92.0482710073 20.0209299553 17.643486616 59.856813331 0 0 0 0 0 0 0 
75 7.73648691177 -74.6220169067 -72.771697998 -33.9004516602 -31.4559149178 2 -0.224248093427 -92.0482712535 20.0039772855 17.643486616 59.856813331 0 0 0 0 0 0 0 
76 7.85143184662 -74.6572036743 -72.649055481 -33.7778091431 -31.4203073089 2 -0.224248093427 -92.0482712535 20.0039772855 17.643486616 59.856813331 0 0 0 0 0 0 0 
77 7.94766807556 -74.650642395 -72.649055481 -33.7778091431 -31.4203073089 2 -0.224248094727 -92.048271787 19.9672535727 17.643486616 59.856813331 0 0 0 0 0 0 0 
78 8.04551196098 -74.64503479 -72.6368865967 -33.7712478638 -31.3782330355 2 1.88295201214 -91.8942677414 19.9672516129 17.643479517 59.85679524 0 0 0 0 0 0 0 
79 8.14471006393 -74.7576141357 -72.7494659424 -33.7656402588 -31.3859537875 2 1.88295201214 -91.8942677414 19.9672516129 17.643479517 59.85679524 0 0 0 0 0 0 0 
80 8.25993204117 -74.7576141357 -72.758682251 -33.8782196045 -31.4188152997 2 1.88295201214 -91.8942677414 19.9672516129 17.643479517 59.85679524 0 0 0 0 0 0 0 
81 8.35631299019 -74.681968689 -72.6738204956 -33.8025741577 -31.4701361666 2 1.88295186776 -91.8942606954 20.4531112524 17.643479517 59.85679524 0 0 0 0 0 0 0 
82 8.47284698486 -74.4319610596 -72.4238128662 -33.8025741577 -31.4701361666 2 1.88295186776 -91.8942606954 20.4531112524 17.643479517 59.85679524 0 0 0 0 0 0 0 
83 8.5768198967 -74.5742721558 -72.5661239624 -33.5525665283 -31.3572164431 2 1.88295198485 -91.89426641 20.059062444 17.643479517 59.85679524 0 0 0 0 0 0 0 
84 8.67185688019 -74.6445007324 -72.6363525391 -33.7651062012 -31.2834347059 2 1.88295198485 -91.89426641 20.059062444 17.643479517 59.85679524 0 0 0 0 0 0 0 
85 8.78835892677 -74.7905502319 -72.6363525391 -33.7651062012 -31.2834347059 2 1.88295198485 -91.89426641 20.059062444 17.643479517 59.85679524 0 0 0 0 0 0 0 
86 8.88775706291 -74.7500762939 -72.7419281006 -33.9111557007 -31.4029156248 2 1.88295192778 -91.8942636244 20.2511434904 17.643479517 59.85679524 0 0 0 0 0 0 0 
87 8.99173784256 -74.5309753418 -72.5228271484 -33.8706817627 -31.4624982344 2 1.88295192778 -91.8942636244 20.2511434904 17.643479517 59.85679524 0 0 0 0 0 0 0 
88 9.0888569355 -74.7256851196 -72.7175369263 -33.6515808105 -31.4225066954 2 2.35296044147 -93.4844608629 20.2511669088 17.643494374 59.856787511 0 0 0 0 0 0 0 
89 9.20705699921 -74.5566253662 -72.5484771729 -33.677230835 -31.3377251739 2 2.35296052905 -93.4844643425 20.0153114917 17.643494374 59.856787511 0 0 0 0 0 0 0 
90 9.30808901787 -74.7597045898 -72.7515563965 -33.677230835 -31.3377251739 2 2.35296052905 -93.4844643425 20.0153114917 17.643494374 59.856787511 0 0 0 0 0 0 0 
91 9.4072470665 -74.8433761597 -72.8352279663 -33.8803100586 -31.4138397139 2 2.35296057783 -93.4844662807 19.8839413449 17.643494374 59.856787511 0 0 0 0 0 0 0 
92 9.52389907837 -74.7245559692 -72.7164077759 -33.9639816284 -31.4515362528 2 2.35296057783 -93.4844662807 19.8839413449 17.643494374 59.856787511 0 0 0 0 0 0 0 
93 9.62902498245 -74.7216033936 -72.7134552002 -33.845161438 -31.5103081929 2 2.35296057783 -93.4844662807 19.8839413449 17.643494374 59.856787511 0 0 0 0 0 0 0 
94 9.7302339077 -75.0773010254 -73.069152832 -34.1979064941 -31.5698528975 2 2.35296054583 -93.4844650094 19.9701112881 17.643494374 59.856787511 0 0 0 0 0 0 0 
95 9.83766388893 -74.9842910767 -72.9761428833 -34.1048965454 -31.6574489348 2 2.35296054583 -93.4844650094 19.9701112881 17.643494374 59.856787511 0 0 0 0 0 0 0 
96 9.92967391014 -74.9560012817 -72.9478530884 -34.1048965454 -31.6574489348 2 2.35296054583 -93.4844650094 19.9701112881 17.643494374 59.856787511 0 0 0 0 0 0 0 
97 10.032957077 -74.8890762329 -72.8809280396 -34.0766067505 -31.7402481773 2 3.92657729975 -93.7630742491 19.9531636122 17.643493056 59.856773106 0 0 0 0 0 0 0 
98 10.1560418606 -74.9602355957 -72.9520874023 -34.0096817017 -31.6777540516 2 3.92657729975 -93.7630742491 19.9531636122 17.643493056 59.856773106 0 0 0 0 0 0 0 
99 10.2475230694 -74.8576507568 -72.8495025635 -33.9782562256 -31.6368972327 2 3.92657729975 -93.7630742491 19.9531636122 17.643493056 59.856773106 0 0 0 0 0 0 0 
100 10.3471529484 -75.0096511841 -72.8495025635 -33.9782562256 -31.6368972327 2 3.9265772201 -93.7630723471 20.0816990724 17.643493056 59.856773106 0 0 0 0 0 0 0 
101 10.4696390629 -74.8063583374 -72.798210144 -33.9269638062 -31.6245157857 2 3.9265772201 -93.7630723471 20.0816990724 17.643493056 59.856773106 0 0 0 0 0 0 0 
102 10.571130991 -75.0288543701 -73.0207061768 -34.1494598389 -31.6809296866 2 3.9265772201 -93.7630723471 20.0816990724 17.643493056 59.856773106 0 0 0 0 0 0 0 
103 10.6620090008 -74.9189224243 -72.910774231 -34.1494598389 -31.6809296866 2 3.92657729274 -93.7630740817 19.9644755188 17.643493056 59.856773106 0 0 0 0 0 0 0 
104 10.7662029266 -74.860824585 -72.8526763916 -34.0395278931 -31.6511443775 2 3.92657729274 -93.7630740817 19.9644755188 17.643493056 59.856773106 0 0 0 0 0 0 0 
105 10.8844878674 -74.8648605347 -72.8526763916 -33.9814300537 -31.6700861725 2 3.92657730324 -93.7630743325 19.9475229116 17.643493056 59.856773106 0 0 0 0 0 0 0 
106 10.9859929085 -74.94581604 -72.9376678467 -33.9854660034 -31.6163739548 2 3.92657730324 -93.7630743325 19.9475229116 17.643493056 59.856773106 0 0 0 0 0 0 0 
107 11.0945169926 -74.9043655396 -72.8962173462 -34.0664215088 -31.6251481835 2 5.96726984997 -92.2421866721 19.9475021834 17.643472299 59.856758705 0 0 0 0 0 0 0 
108 11.1987578869 -74.8160171509 -72.8078689575 -34.0249710083 -31.6397617185 2 5.96726983802 -92.2421864874 19.9601934589 17.643472299 59.856758705 0 0 0 0 0 0 0 
109 11.307174921 -74.8268890381 -72.8187408447 -33.9474945068 -31.5837349275 2 5.96726983802 -92.2421864874 19.9601934589 17.643472299 59.856758705 0 0 0 0 0 0 0 
110 11.4085998535 -74.8151702881 -72.8070220947 -33.9357757568 -31.5543514687 2 5.96726983802 -92.2421864874 19.9601934589 17.643472299 59.856758705 0 0 0 0 0 0 0 
111 11.5101630688 -74.9084014893 -72.9002532959 -33.9357757568 -31.5543514687 2 5.96726983534 -92.2421864459 19.9630434903 17.643472299 59.856758705 0 0 0 0 0 0 0 
112 11.6156640053 -74.9910354614 -72.9828872681 -34.029006958 -31.5847586112 2 5.96726983534 -92.2421864459 19.9630434903 17.643472299 59.856758705 0 0 0 0 0 0 0 
113 11.7165420055 -74.9405441284 -72.9828872681 -34.1116409302 -31.6386791088 2 5.96726945231 -92.242180525 20.3697819147 17.643472299 59.856758705 0 0 0 0 0 0 0 
114 11.8179600239 -75.0627975464 -73.054649353 -34.1834030151 -31.7325465212 2 5.96726945231 -92.242180525 20.3697819147 17.643472299 59.856758705 0 0 0 0 0 0 0 
115 11.9329249859 -74.8789825439 -73.054649353 -34.1834030151 -31.7325465212 2 5.96726945231 -92.242180525 20.3697819147 17.643472299 59.856758705 0 0 0 0 0 0 0 
116 12.0351788998 -74.7607116699 -72.7525634766 -33.9995880127 -31.6944363263 2 6.37667030781 -93.7806689803 19.9051601414 17.643486792 59.856751624 0 0 0 0 0 0 0 
117 12.1403338909 -74.8655548096 -72.8574066162 -33.8813171387 -31.6322917127 2 6.37667030781 -93.7806689803 19.9051601414 17.643486792 59.856751624 0 0 0 0 0 0 0 
118 12.2492539883 -74.9050674438 -72.8969192505 -34.0256729126 -31.5779190278 2 6.37667030781 -93.7806689803 19.9051601414 17.643486792 59.856751624 0 0 0 0 0 0 0 
119 12.3557589054 -74.8371810913 -72.8290328979 -33.9577865601 -31.604088684 2 6.3766700861 -93.7806657197 20.1254753484 17.643486792 59.856751624 0 0 0 0 0 0 0 
120 12.4597680569 -74.8453445435 -72.8371963501 -33.9577865601 -31.604088684 2 6.3766700861 -93.7806657197 20.1254753484 17.643486792 59.856751624 0 0 0 0 0 0 0 
121 12.5549600124 -74.8901138306 -72.8819656372 -33.9659500122 -31.5973200152 2 6.37667037179 -93.7806699212 19.8415848426 17.643486792 59.856751624 0 0 0 0 0 0 0 
122 12.6724388599 -74.9429855347 -72.9348373413 -34.0635910034 -31.6274473627 2 6.37667037179 -93.7806699212 19.8415848426 17.643486792 59.856751624 0 0 0 0 0 0 0 
123 12.7690529823 -74.7474060059 -72.9348373413 -34.0635910034 -31.6274473627 2 6.37667037179 -93.7806699212 19.8415848426 17.643486792 59.856751624 0 0 0 0 0 0 0 
124 12.8747038841 -74.8265838623 -72.8184356689 -33.8680114746 -31.593586868 2 6.37667037179 -93.7806699212 19.8415848426 17.643486792 59.856751624 0 0 0 0 0 0 0 
125 12.9692900181 -74.8681106567 -72.8599624634 -33.9471893311 -31.5725097503 2 6.37667026518 -93.7806683533 19.9475251645 17.643486792 59.856751624 0 0 0 0 0 0 0 
126 13.084843874 -74.7118988037 -72.7037506104 -33.9887161255 -31.5484538801 2 4.36054173778 -94.8863967634 19.947539918 17.643503283 59.856766754 0 0 0 0 0 0 0 
127 13.1858530045 -74.7626800537 -72.7545318604 -33.8325042725 -31.5361870252 2 4.36054152981 -94.8863922379 20.2497585081 17.643503283 59.856766754 0 0 0 0 0 0 0 
128 13.3018620014 -74.8640441895 -72.8558959961 -33.9846496582 -31.5136226378 2 4.36054152981 -94.8863922379 20.2497585081 17.643503283 59.856766754 0 0 0 0 0 0 0 
129 13.3878190517 -74.9249343872 -72.9167861938 -33.9846496582 -31.5136226378 2 4.36054152981 -94.8863922379 20.2497585081 17.643503283 59.856766754 0 0 0 0 0 0 0 
130 13.5056638718 -74.95677948 -72.9486312866 -34.045539856 -31.5845178077 2 4.36054160949 -94.8863939718 20.1339665848 17.643503283 59.856766754 0 0 0 0 0 0 0 
131 13.6077010632 -74.7790679932 -72.7709197998 -34.0773849487 -31.6499103439 2 4.36054160949 -94.8863939718 20.1339665848 17.643503283 59.856766754 0 0 0 0 0 0 0 
132 13.7155959606 -74.9135665894 -72.905418396 -33.8996734619 -31.6205382952 2 4.36054160949 -94.8863939718 20.1339665848 17.643503283 59.856766754 0 0 0 0 0 0 0 
133 13.8208959103 -74.7038269043 -72.6956787109 -34.0341720581 -31.6168105993 2 4.36054150745 -94.8863917513 20.2822558837 17.643503283 59.856766754 0 0 0 0 0 0 0 
134 13.911687851 -74.8911056519 -72.8829574585 -33.824432373 -31.5320945162 2 4.36054150745 -94.8863917513 20.2822558837 17.643503283 59.856766754 0 0 0 0 0 0 0 
135 14.0301408768 -74.8641204834 -72.85597229 -34.0117111206 -31.5691104729 2 8.56616042579 -94.8052502112 20.444657209 17.643491404 59.856730133 0 0 0 0 0 0 0 
136 14.1385200024 -75.0209121704 -73.0127639771 -34.1415176392 -31.6593071781 2 8.56616042579 -94.8052502112 20.444657209 17.643491404 59.856730133 0 0 0 0 0 0 0 
137 14.2294499874 -74.8886795044 -72.880531311 -34.1415176392 -31.6593071781 2 8.56616042579 -94.8052502112 20.444657209 17.643491404 59.856730133 0 0 0 0 0 0 0 
138 14.332144022 -74.9746780396 -72.9665298462 -34.0092849731 -31.6584856983 2 8.56616031313 -94.8052489644 20.5279936756 17.643491404 59.856730133 0 0 0 0 0 0 0 
139 14.4512200356 -74.7814865112 -72.9665298462 -34.0952835083 -31.6957292043 2 8.56616031313 -94.8052489644 20.5279936756 17.643491404 59.856730133 0 0 0 0 0 0 0 
140 14.5529448986 -74.9580612183 -72.9499130249 -34.078666687 -31.6379656108 2 8.56616031313 -94.8052489644 20.5279936756 17.643491404 59.856730133 0 0 0 0 0 0 0 
141 14.6450059414 -74.8173217773 -72.9499130249 -34.078666687 -31.6379656108 2 8.56616076561 -94.8052539721 20.1932856711 17.643491404 59.856730133 0 0 0 0 0 0 0 
142 14.7460379601 -74.8173217773 -72.8445587158 -33.9379272461 -31.5859611885 2 8.56616076561 -94.8052539721 20.1932856711 17.643491404 59.856730133 0 0 0 0 0 0 0 
143 14.8725190163 -74.8343276978 -72.8261795044 -33.9733123779 -31.6102104397 2 8.56616065295 -94.8052527253 20.2766218129 17.643491404 59.856730133 0 0 0 0 0 0 0 
144 14.9669480324 -74.8412704468 -72.8331222534 -33.9549331665 -31.5697365864 2 12.3560170666 -94.135461937 20.2766180831 17.643474661 59.856698489 0 0 0 0 0 0 0 
145 15.0814290047 -75.064781189 -73.0566329956 -34.1853866577 -31.6458522011 2 12.3560170666 -94.135461937 20.2766180831 17.643474661 59.856698489 0 0 0 0 0 0 0 
146 15.1801669598 -74.9219741821 -72.9138259888 -34.1853866577 -31.6458522011 2 12.3560170666 -94.135461937 20.2766180831 17.643474661 59.856698489 0 0 0 0 0 0 0 
147 15.2868008614 -74.8195419312 -72.8113937378 -33.9401473999 -31.6681104799 2 12.3560175817 -94.1354658607 20.01249632 17.643474661 59.856698489 0 0 0 0 0 0 0 
148 15.4096899033 -75.024520874 -73.0163726807 -33.9401473999 -31.6681104799 2 12.3560175817 -94.1354658607 20.01249632 17.643474661 59.856698489 0 0 0 0 0 0 0 
149 15.4857449532 -74.9045181274 -72.8963699341 -34.1451263428 -31.6553993998 2 12.3560175982 -94.1354659866 20.0040199916 17.643474661 59.856698489 0 0 0 0 0 0 0 
150 15.607063055 -74.9156417847 -72.9074935913 -34.0362472534 -31.6825551272 2 12.3560175982 -94.1354659866 20.0040199916 17.643474661 59.856698489 0 0 0 0 0 0 0 
151 15.6959018707 -74.7724533081 -72.7643051147 -34.0362472534 -31.6825551272 2 12.3560175982 -94.1354659866 20.0040199916 17.643474661 59.856698489 0 0 0 0 0 0 0 
152 15.7992968559 -74.8822402954 -72.7643051147 -33.8930587769 -31.5982230515 2 12.3560168931 -94.1354606152 20.3655916362 17.643474661 59.856698489 0 0 0 0 0 0 0 
153 15.9173970222 -74.752746582 -72.7445983887 -34.0028457642 -31.5909118092 2 12.3560168931 -94.1354606152 20.3655916362 17.643474661 59.856698489 0 0 0 0 0 0 0 
154 16.0182168484 -74.8821487427 -72.7445983887 -33.8733520508 -31.5367362094 2 16.3219144576 -92.2933273196 20.3655735118 17.643445591 59.85666797 0 0 0 0 0 0 0 
155 16.1132478714 -74.9203872681 -72.8740005493 -34.0027542114 -31.5731813889 2 16.3219149378 -92.2933300349 20.1791489676 17.643445591 59.85666797 0 0 0 0 0 0 0 
156 16.2280390263 -74.8530502319 -72.9122390747 -34.0409927368 -31.5855681047 2 16.3219149378 -92.2933300349 20.1791489676 17.643445591 59.85666797 0 0 0 0 0 0 0 
157 16.3432888985 -74.8759231567 -72.8677749634 -33.9736557007 -31.6200196568 2 16.3219147778 -92.2933291302 20.2412631527 17.643445591 59.85666797 0 0 0 0 0 0 0 
158 16.4328229427 -74.839225769 -72.8310775757 -33.9965286255 -31.6179397301 2 16.3219147778 -92.2933291302 20.2412631527 17.643445591 59.85666797 0 0 0 0 0 0 0 
159 16.5476698875 -74.9864959717 -72.8310775757 -33.9598312378 -31.5910128882 2 16.3219147778 -92.2933291302 20.2412631527 17.643445591 59.85666797 0 0 0 0 0 0 0 
160 16.6411960125 -74.8260955811 -72.8179473877 -34.1071014404 -31.6346500325 2 16.3219148796 -92.2933297059 20.2017403747 17.643445591 59.85666797 0 0 0 0 0 0 0 
161 16.7593989372 -74.7312850952 -72.7231369019 -33.9467010498 -31.6177303093 2 16.3219148796 -92.2933297059 20.2017403747 17.643445591 59.85666797 0 0 0 0 0 0 0 
162 16.8488240242 -75.0879440308 -73.0797958374 -33.851890564 -31.5804167209 2 16.3219148796 -92.2933297059 20.2017403747 17.643445591 59.85666797 0 0 0 0 0 0 0 
163 16.9536108971 -74.8543548584 -72.846206665 -34.2085494995 -31.6115995879 2 16.3219144613 -92.2933273405 20.3641412833 17.643445591 59.85666797 0 0 0 0 0 0 0 
164 17.072660923 -75.0066375732 -72.9984893799 -33.9749603271 -31.6211997277 2 16.6246624135 -91.4777176975 20.3641302442 17.643436541 59.856667175 0 0 0 0 0 0 0 
165 17.1797158718 -74.9352035522 -72.9270553589 -34.127243042 -31.7158088612 2 16.6246624135 -91.4777176975 20.3641302442 17.643436541 59.856667175 0 0 0 0 0 0 0 
166 17.2748260498 -74.9538879395 -72.9457397461 -34.0744934082 -31.7000320485 2 16.624663451 -91.4777234062 19.9686923918 17.643436541 59.856667175 0 0 0 0 0 0 0 
167 17.3726949692 -74.9677581787 -72.9596099854 -34.0744934082 -31.7000320485 2 16.624663451 -91.4777234062 19.9686923918 17.643436541 59.856667175 0 0 0 0 0 0 0 
168 17.4968800545 -74.8013381958 -72.7931900024 -33.9219436646 -31.641341518 2 16.6246628396 -91.477720042 20.2017293356 17.643436541 59.856667175 0 0 0 0 0 0 0 
169 17.5775160789 -74.8880310059 -72.7931900024 -33.9219436646 -31.641341518 2 16.6246628396 -91.477720042 20.2017293356 17.643436541 59.856667175 0 0 0 0 0 0 0 
170 17.689786911 -74.9323806763 -72.9242324829 -34.052986145 -31.6082318178 2 16.6246628396 -91.477720042 20.2017293356 17.643436541 59.856667175 0 0 0 0 0 0 0 
171 17.8040430546 -74.9066696167 -72.8985214233 -34.0272750854 -31.6439502141 2 16.6246635325 -91.4777238549 19.9376091407 17.643436541 59.856667175 0 0 0 0 0 0 0 
172 17.8976230621 -74.7978286743 -72.789680481 -34.0272750854 -31.6439502141 2 16.6246635325 -91.4777238549 19.9376091407 17.643436541 59.856667175 0 0 0 0 0 0 0 
173 18.0069220066 -74.9455490112 -72.9374008179 -33.9184341431 -31.6131715007 2 15.9557300968 -89.9327811241 19.9375853053 17.643422665 59.856676542 0 0 0 0 0 0 0 
174 18.1164040565 -74.8354034424 -72.827255249 -34.06615448 -31.6174439699 2 15.955729734 -89.9327790793 20.0816624249 17.643422665 59.856676542 0 0 0 0 0 0 0 
175 18.2257330418 -74.8417892456 -72.8336410522 -33.9623947144 -31.6086627692 2 15.955729734 -89.9327790793 20.0816624249 17.643422665 59.856676542 0 0 0 0 0 0 0 
176 18.3283560276 -74.7448883057 -72.7367401123 -33.9623947144 -31.6086627692 2 15.955729734 -89.9327790793 20.0816624249 17.643422665 59.856676542 0 0 0 0 0 0 0 
177 18.4209139347 -74.9125671387 -72.9044189453 -33.8654937744 -31.5419065321 2 15.9557286707 -89.932773086 20.5039410192 17.643422665 59.856676542 0 0 0 0 0 0 0 
178 18.5267219543 -74.7638778687 -72.7557296753 -34.0331726074 -31.5669910096 2 15.9557286707 -89.932773086 20.5039410192 17.643422665 59.856676542 0 0 0 0 0 0 0 
179 18.640953064 -74.7589035034 -72.7507553101 -33.8844833374 -31.5408263267 2 15.9557301501 -89.9327814245 19.91641605 17.643422665 59.856676542 0 0 0 0 0 0 0 
180 18.7368569374 -74.8687744141 -72.8606262207 -33.8795089722 -31.5456208379 2 15.9557301501 -89.9327814245 19.91641605 17.643422665 59.856676542 0 0 0 0 0 0 0 
181 18.8422019482 -74.9786834717 -72.9705352783 -33.9893798828 -31.5315967354 2 15.9557301501 -89.9327814245 19.91641605 17.643422665 59.856676542 0 0 0 0 0 0 0 
182 18.9628520012 -74.9786834717 -72.9705352783 -34.0992889404 -31.6445222418 2 15.9557293784 -89.9327770749 20.2228868022 17.643422665 59.856676542 0 0 0 0 0 0 0 
183 19.0496239662 -74.9916687012 -72.8746032715 -34.0033569336 -31.6445222418 2 15.2727719318 -88.6485183184 20.2228670225 17.643411464 59.856685439 0 0 0 0 0 0 0 
184 19.1573698521 -74.9876708984 -72.9795227051 -34.1122741699 -31.6854877938 2 15.2727719318 -88.6485183184 20.2228670225 17.643411464 59.856685439 0 0 0 0 0 0 0 
185 19.2722020149 -74.8371047974 -72.828956604 -34.1082763672 -31.6884408518 2 15.2727718058 -88.6485175872 20.2751357678 17.643411464 59.856685439 0 0 0 0 0 0 0 
186 19.3826198578 -75.0379943848 -73.0298461914 -34.1585998535 -31.6875673473 2 15.2727718058 -88.6485175872 20.2751357678 17.643411464 59.856685439 0 0 0 0 0 0 0 
187 19.4758119583 -74.9296569824 -72.9215087891 -34.1585998535 -31.6875673473 2 15.2727718058 -88.6485175872 20.2751357678 17.643411464 59.856685439 0 0 0 0 0 0 0 
188 19.5838429928 -74.8431777954 -72.8350296021 -34.0502624512 -31.6683681377 2 15.2727717582 -88.6485173109 20.2948866939 17.643411464 59.856685439 0 0 0 0 0 0 0 
189 19.6877310276 -74.8499755859 -72.8350296021 -33.9637832642 -31.6704823031 2 15.2727717582 -88.6485173109 20.2948866939 17.643411464 59.856685439 0 0 0 0 0 0 0 
190 19.7985210419 -74.7065811157 -72.6984329224 -33.9705810547 -31.6089158536 2 15.2727717582 -88.6485173109 20.2948866939 17.643411464 59.856685439 0 0 0 0 0 0 0 
191 19.9058949947 -75.0407714844 -73.032623291 -34.1613769531 -31.5964781901 2 15.2727731096 -88.6485251547 19.7342094978 17.643411464 59.856685439 0 0 0 0 0 0 0 
192 19.9972450733 -74.9247283936 -72.9165802002 -34.0453338623 -31.6212425543 2 15.2727731096 -88.6485251547 19.7342094978 17.643411464 59.856685439 0 0 0 0 0 0 0 
193 20.100427866 -74.9265136719 -72.9183654785 -34.0453338623 -31.6212425543 2 13.9679015498 -88.500994236 20.4149187988 17.643413402 59.856697194 0 0 0 0 0 0 0 
194 20.2152340412 -74.8126449585 -72.8044967651 -34.0471191406 -31.698329161 2 13.9679015498 -88.500994236 20.4149187988 17.643413402 59.856697194 0 0 0 0 0 0 0 
195 20.3183410168 -74.9512939453 -72.943145752 -33.9332504272 -31.6223045962 2 13.9679015498 -88.500994236 20.4149187988 17.643413402 59.856697194 0 0 0 0 0 0 0 
196 20.4270968437 -74.8512115479 -72.8430633545 -34.0718994141 -31.6309727311 2 13.9679016992 -88.5009951828 20.3471281535 17.643413402 59.856697194 0 0 0 0 0 0 0 
197 20.5240418911 -74.8512115479 -72.8430633545 -33.9718170166 -31.605933351 2 13.9679016992 -88.5009951828 20.3471281535 17.643413402 59.856697194 0 0 0 0 0 0 0 
198 20.6290290356 -74.8526992798 -72.8445510864 -34.055267334 -31.646944954 2 13.9679016992 -88.5009951828 20.3471281535 17.643413402 59.856697194 0 0 0 0 0 0 0 
199 20.7301959991 -74.8987426758 -72.8905944824 -33.9733047485 -31.6141748241 2 13.9679020509 -88.5009974114 20.1875658032 17.643413402 59.856697194 0 0 0 0 0 0 0 
200 20.8446800709 -74.819519043 -72.8113708496 -33.9401245117 -31.5917434568 2 13.9679020509 -88.5009974114 20.1875658032 17.643413402 59.856697194 0 0 0 0 0 0 0 
201 20.9474029541 -74.8907699585 -72.8826217651 -33.9401245117 -31.5917434568 2 13.9679024152 -88.5009997193 20.0223203404 17.643413402 59.856697194 0 0 0 0 0 0 0 
202 21.0632150173 -74.8439178467 -72.8357696533 -33.9645233154 -31.5862005401 2 12.5822769382 -87.8810150813 20.0223088079 17.643410771 59.85671073 0 0 0 0 0 0 0 
203 21.1580450535 -74.9310760498 -72.9229278564 -33.9645233154 -31.5862005401 2 12.5822769382 -87.8810150813 20.0223088079 17.643410771 59.85671073 0 0 0 0 0 0 0 
204 21.2667548656 -74.8936767578 -72.8855285645 -34.0516815186 -31.6232949336 2 12.5822769102 -87.8810148855 20.0364254092 17.643410771 59.85671073 0 0 0 0 0 0 0 
205 21.3722159863 -74.7862091064 -72.7780609131 -34.0142822266 -31.6242623313 2 12.5822769102 -87.8810148855 20.0364254092 17.643410771 59.85671073 0 0 0 0 0 0 0 
206 21.4742350578 -74.8128738403 -72.7780609131 -33.9068145752 -31.6044475144 2 12.5822769102 -87.8810148855 20.0364254092 17.643410771 59.85671073 0 0 0 0 0 0 0 
207 21.5682680607 -74.6926269531 -72.6844787598 -33.9334793091 -31.5654401991 2 12.5822761895 -87.8810098517 20.399387077 17.643410771 59.85671073 0 0 0 0 0 0 0 
208 21.6709170341 -74.6926269531 -72.6844787598 -33.8132324219 -31.4982876078 2 12.5822761895 -87.8810098517 20.399387077 17.643410771 59.85671073 0 0 0 0 0 0 0 
209 21.7932050228 -74.8849563599 -72.8768081665 -34.0055618286 -31.5816021918 2 12.5822761895 -87.8810098517 20.399387077 17.643410771 59.85671073 0 0 0 0 0 0 0 
210 21.8926329613 -74.8170394897 -72.8088912964 -33.9376449585 -31.6253060014 2 12.5822766718 -87.8810132204 20.1564856354 17.643410771 59.85671073 0 0 0 0 0 0 0 
211 21.9848430157 -74.8640594482 -72.8088912964 -33.9376449585 -31.6253060014 2 12.5822766718 -87.8810132204 20.1564856354 17.643410771 59.85671073 0 0 0 0 0 0 0 
212 22.0923819542 -74.8591308594 -72.850982666 -33.984664917 -31.5901648675 2 11.4404603923 -86.8081682835 20.1564686827 17.643402916 59.856723162 0 0 0 0 0 0 0 
213 22.1993019581 -74.8591308594 -72.850982666 -33.9797363281 -31.5816397246 2 11.4404603006 -86.8081675873 20.2072897847 17.643402916 59.856723162 0 0 0 0 0 0 0 
214 22.3118760586 -74.9093933105 -72.900100708 -34.0288543701 -31.6120335545 2 11.4404603006 -86.8081675873 20.2072897847 17.643402916 59.856723162 0 0 0 0 0 0 0 
215 22.4069149494 -74.8586578369 -72.8505096436 -34.0299987793 -31.627130175 2 11.4404606856 -86.8081705087 19.9940442031 17.643402916 59.856723162 0 0 0 0 0 0 0 
216 22.512583971 -74.9180374146 -72.9098892212 -33.9792633057 -31.6269700748 2 11.4404606856 -86.8081705087 19.9940442031 17.643402916 59.856723162 0 0 0 0 0 0 0 
217 22.6274390221 -74.8271179199 -72.8189697266 -34.0386428833 -31.630203663 2 11.4404606856 -86.8081705087 19.9940442031 17.643402916 59.856723162 0 0 0 0 0 0 0 
218 22.7304980755 -75.2520370483 -73.243888855 -33.9477233887 -31.6026104544 3 11.4404600762 -86.8081658846 20.3315783854 17.643402916 59.856723162 0 0 0 0 0 0 0 
219 22.8192720413 -71.8631820679 -69.8550338745 -34.3726425171 -31.7265093971 3 11.4404600762 -86.8081658846 20.3315783854 17.643402916 59.856723162 0 0 0 0 0 0 0 
220 22.9302618504 -71.9253082275 -69.9171600342 -30.9837875366 -30.1540066702 3 11.4404600762 -86.8081658846 20.3315783854 17.643402916 59.856723162 0 0 0 0 0 0 0 
221 23.0441889763 -71.8908233643 -69.8826751709 -31.0459136963 -29.2897129131 3 9.52224909728 -85.3081091715 20.2891927902 17.643392779 59.85674336 0 0 0 0 0 0 0 
222 23.1530480385 -71.9980621338 -69.9899139404 -31.1186676025 -28.6726050034 3 9.52224909728 -85.3081091715 20.2891927902 17.643392779 59.85674336 0 0 0 0 0 0 0 
223 23.2571189404 -72.0057373047 -69.9975891113 -31.1186676025 -28.6726050034 3 9.52224911637 -85.3081093426 20.2764882012 17.643392779 59.85674336 0 0 0 0 0 0 0 
224 23.3503508568 -71.7981185913 -69.7899703979 -31.1263427734 -28.699236384 3 9.52224911637 -85.3081093426 20.2764882012 17.643392779 59.85674336 0 0 0 0 0 0 0 
225 23.4634430408 -71.7583389282 -69.7899703979 -30.9187240601 -28.6668231986 3 9.52224911637 -85.3081093426 20.2764882012 17.643392779 59.85674336 0 0 0 0 0 0 0 
226 23.5723118782 -71.8252487183 -69.8171005249 -30.878944397 -28.5863844462 3 9.52224912064 -85.3081093808 20.2736487093 17.643392779 59.85674336 0 0 0 0 0 0 0 
227 23.6669399738 -71.8604278564 -69.8522796631 -30.9810333252 -28.5492572413 3 9.52224912064 -85.3081093808 20.2736487093 17.643392779 59.85674336 0 0 0 0 0 0 0 
228 23.7875869274 -71.8593292236 -69.8511810303 -30.9810333252 -28.5492572413 3 9.52224912064 -85.3081093808 20.2736487093 17.643392779 59.85674336 0 0 0 0 0 0 0 
229 23.8857829571 -71.9003219604 -69.8921737671 -30.9799346924 -28.5832729443 3 9.52224888291 -85.308107251 20.4318452169 17.643392779 59.85674336 0 0 0 0 0 0 0 
230 23.9802429676 -71.8781738281 -69.8700256348 -31.0209274292 -28.6082753078 3 10.9327861359 -84.5246839117 20.4318369953 17.643381142 59.856732797 0 0 0 0 0 0 0 
231 24.1027879715 -71.8909759521 -69.8828277588 -31.0115814209 -28.6248041258 3 10.9327862943 -84.5246851365 20.3400233273 17.643381142 59.856732797 0 0 0 0 0 0 0 
232 24.2097949982 -71.8220291138 -69.8138809204 -31.0115814209 -28.6248041258 3 10.9327862943 -84.5246851365 20.3400233273 17.643381142 59.856732797 0 0 0 0 0 0 0 
233 24.3090779781 -72.0820999146 -70.0739517212 -31.2027053833 -28.6639388595 3 10.9327862943 -84.5246851365 20.3400233273 17.643381142 59.856732797 0 0 0 0 0 0 0 
234 24.4109640121 -71.7855148315 -69.7773666382 -30.9061203003 -28.6275881807 3 10.9327862943 -84.5246851365 20.3400233273 17.643381142 59.856732797 0 0 0 0 0 0 0 
235 24.5118348598 -71.7855148315 -69.7438354492 -30.9061203003 -28.6275881807 3 10.932785958 -84.5246825367 20.5349210778 17.643381142 59.856732797 0 0 0 0 0 0 0 
236 24.6087958813 -71.9950027466 -69.9868545532 -30.8725891113 -28.6032126364 3 10.932785958 -84.5246825367 20.5349210778 17.643381142 59.856732797 0 0 0 0 0 0 0 
237 24.723058939 -71.8499755859 -69.8418273926 -31.1156082153 -28.576533384 3 10.9327865989 -84.5246874913 20.1634858807 17.643381142 59.856732797 0 0 0 0 0 0 0 
238 24.8280339241 -71.9199447632 -69.9117965698 -30.9705810547 -28.5983671888 3 10.9327865989 -84.5246874913 20.1634858807 17.643381142 59.856732797 0 0 0 0 0 0 0 
239 24.9305410385 -71.6658477783 -69.657699585 -31.0405502319 -28.6558331195 3 10.9327865989 -84.5246874913 20.1634858807 17.643381142 59.856732797 0 0 0 0 0 0 0 
240 25.0378940105 -71.8240203857 -69.8158721924 -30.9446258545 -28.5357318053 3 9.53841637747 -82.969916752 20.4727415616 17.643369074 59.856748535 0 0 0 0 0 0 0 
241 25.1433649063 -71.8179473877 -69.8097991943 -30.9446258545 -28.5357318053 3 9.53841637747 -82.969916752 20.4727415616 17.643369074 59.856748535 0 0 0 0 0 0 0 
242 25.253221035 -71.8421554565 -69.8340072632 -30.9385528564 -28.503028583 3 9.53841637747 -82.969916752 20.4727415616 17.643369074 59.856748535 0 0 0 0 0 0 0 
243 25.3420410156 -71.8733444214 -69.8340072632 -30.9627609253 -28.5630159412 3 9.53841685578 -82.9699209126 20.1549865669 17.643369074 59.856748535 0 0 0 0 0 0 0 
244 25.4578390121 -71.7460021973 -69.7378540039 -30.866607666 -28.554820626 3 9.53841685578 -82.9699209126 20.1549865669 17.643369074 59.856748535 0 0 0 0 0 0 0 
245 25.5548079014 -71.8912963867 -69.8831481934 -31.0119018555 -28.570910717 3 9.53841632218 -82.9699162711 20.5094675543 17.643369074 59.856748535 0 0 0 0 0 0 0 
246 25.6578800678 -72.001991272 -69.9938430786 -31.0119018555 -28.570910717 3 9.53841632218 -82.9699162711 20.5094675543 17.643369074 59.856748535 0 0 0 0 0 0 0 
247 25.7763710022 -71.8571777344 -69.849029541 -30.9777832031 -28.6509458613 3 9.53841632218 -82.9699162711 20.5094675543 17.643369074 59.856748535 0 0 0 0 0 0 0 
248 25.8912959099 -71.9094314575 -69.9012832642 -30.9777832031 -28.6509458613 3 9.53841638383 -82.9699168074 20.4685151096 17.643369074 59.856748535 0 0 0 0 0 0 0 
249 25.9833500385 -71.9226226807 -69.9144744873 -31.0300369263 -28.6570429902 3 7.54508395141 -82.7379891108 20.46850939 17.643371968 59.856766507 0 0 0 0 0 0 0 
250 26.086304903 -71.9328079224 -69.924659729 -31.0432281494 -28.6312254629 3 7.54508395141 -82.7379891108 20.46850939 17.643371968 59.856766507 0 0 0 0 0 0 0 
251 26.1912238598 -71.7364883423 -69.7283401489 -30.857093811 -28.5970793016 3 7.54508383876 -82.7379878755 20.5631132002 17.643371968 59.856766507 0 0 0 0 0 0 0 
252 26.291588068 -71.8628158569 -69.8546676636 -30.857093811 -28.5970793016 3 7.54508383876 -82.7379878755 20.5631132002 17.643371968 59.856766507 0 0 0 0 0 0 0 
253 26.4069468975 -71.8813858032 -69.8732376099 -31.001991272 -28.5609354533 3 7.54508383876 -82.7379878755 20.5631132002 17.643371968 59.856766507 0 0 0 0 0 0 0 
254 26.5066280365 -71.874382019 -69.8662338257 -30.9949874878 -28.6078469169 3 7.54508397831 -82.7379894057 20.4459208495 17.643371968 59.856766507 0 0 0 0 0 0 0 
255 26.6023740768 -71.6071853638 -69.5990371704 -30.7277908325 -28.5188486897 3 7.54508397831 -82.7379894057 20.4459208495 17.643371968 59.856766507 0 0 0 0 0 0 0 
256 26.7141778469 -71.8489074707 -69.8407592773 -30.7277908325 -28.5188486897 3 7.54508397831 -82.7379894057 20.4459208495 17.643371968 59.856766507 0 0 0 0 0 0 0 
257 26.8182730675 -71.7681808472 -69.7600326538 -30.9695129395 -28.5084452649 3 7.54508385218 -82.7379880226 20.5518464391 17.643371968 59.856766507 0 0 0 0 0 0 0 
258 26.9226698875 -71.9558792114 -69.9477310181 -30.8887863159 -28.4740860045 3 7.54508385218 -82.7379880226 20.5518464391 17.643371968 59.856766507 0 0 0 0 0 0 0 
259 27.027657032 -71.9409484863 -69.9477310181 -31.0764846802 -28.5912971293 3 5.05653990785 -82.0626740508 20.5574688864 17.643371677 59.856789821 0 0 0 0 0 0 0 
260 27.1381108761 -71.9848098755 -69.9766616821 -31.1054153442 -28.6954687954 3 5.05653990785 -82.0626740508 20.5574688864 17.643371677 59.856789821 0 0 0 0 0 0 0 
261 27.2382428646 -71.6618652344 -69.653717041 -31.1054153442 -28.6954687954 3 5.05653990785 -82.0626740508 20.5574688864 17.643371677 59.856789821 0 0 0 0 0 0 0 
262 27.3456859589 -72.001953125 -69.9938049316 -31.1225585938 -28.6121494327 3 5.05653984474 -82.0626730266 20.636554808 17.643371677 59.856789821 0 0 0 0 0 0 0 
263 27.4480638504 -71.845199585 -69.8370513916 -31.1225585938 -28.6121494327 3 5.05653984474 -82.0626730266 20.636554808 17.643371677 59.856789821 0 0 0 0 0 0 0 
264 27.5564730167 -71.8225479126 -69.8143997192 -30.9431533813 -28.6234463307 3 5.05653984474 -82.0626730266 20.636554808 17.643371677 59.856789821 0 0 0 0 0 0 0 
265 27.6544249058 -71.9119796753 -69.9038314819 -30.9431533813 -28.6234463307 3 5.05653968472 -82.0626704297 20.8370772754 17.643371677 59.856789821 0 0 0 0 0 0 0 
266 27.7527780533 -71.7463912964 -69.9038314819 -31.032585144 -28.5945774303 3 5.05653968472 -82.0626704297 20.8370772754 17.643371677 59.856789821 0 0 0 0 0 0 0 
267 27.8755040169 -71.7919692993 -69.783821106 -30.8669967651 -28.5609188386 3 5.05653963175 -82.06266957 20.9034606209 17.643371677 59.856789821 0 0 0 0 0 0 0 
268 27.9737119675 -71.9208145142 -69.783821106 -30.9125747681 -28.5506621716 3 4.67633399835 -83.7006457468 20.9034817529 17.643389253 59.856789424 0 0 0 0 0 0 0 
269 28.0814650059 -71.8401412964 -69.831993103 -31.0414199829 -28.5534754463 3 4.67633399835 -83.7006457468 20.9034817529 17.643389253 59.856789424 0 0 0 0 0 0 0 
270 28.1851389408 -71.6417160034 -69.6335678101 -30.9607467651 -28.5853252551 3 4.6763342068 -83.7006494778 20.6210288687 17.643389253 59.856789424 0 0 0 0 0 0 0 
271 28.2891340256 -71.7469177246 -69.7387695312 -30.7623214722 -28.532697761 3 4.6763342068 -83.7006494778 20.6210288687 17.643389253 59.856789424 0 0 0 0 0 0 0 
272 28.4005150795 -71.8704071045 -69.8622589111 -30.9910125732 -28.4860047345 3 4.6763342068 -83.7006494778 20.6210288687 17.643389253 59.856789424 0 0 0 0 0 0 0 
273 28.5051429272 -71.7995452881 -69.7913970947 -30.9910125732 -28.4860047345 3 4.67633424016 -83.7006500749 20.5758255458 17.643389253 59.856789424 0 0 0 0 0 0 0 
274 28.5934610367 -71.904624939 -69.8964767456 -30.9201507568 -28.5400339451 3 4.67633424016 -83.7006500749 20.5758255458 17.643389253 59.856789424 0 0 0 0 0 0 0 
275 28.711165905 -72.0159225464 -70.007774353 -31.1365280151 -28.6399007703 3 4.67633420576 -83.7006494592 20.6224356636 17.643389253 59.856789424 0 0 0 0 0 0 0 
276 28.8029520512 -71.6482391357 -69.6400909424 -31.1365280151 -28.6399007703 3 4.67633420576 -83.7006494592 20.6224356636 17.643389253 59.856789424 0 0 0 0 0 0 0 
277 28.9081380367 -71.8924865723 -69.8843383789 -30.7688446045 -28.5857507278 3 4.67633420576 -83.7006494592 20.6224356636 17.643389253 59.856789424 0 0 0 0 0 0 0 
278 29.0182180405 -71.8924865723 -69.8025283813 -31.013092041 -28.5817963039 3 4.67633420576 -83.7006494592 20.6224356636 17.643337563 59.856815073 0 0 0 0 0 0 0 
279 29.1168298721 -71.8583450317 -69.8501968384 -30.9312820435 -28.5164140454 3 3.17399161006 -78.2026124322 20.4797434949 17.643337563 59.856815073 0 0 0 0 0 0 0 
280 29.2338020802 -71.9020462036 -69.8938980103 -30.9789505005 -28.5885758074 3 3.17399161006 -78.2026124322 20.4797434949 17.643337563 59.856815073 0 0 0 0 0 0 0 
281 29.336550951 -71.4298706055 -69.4217224121 -31.0226516724 -28.5917011294 3 3.1739915379 -78.2026106543 20.6238020977 17.643337563 59.856815073 0 0 0 0 0 0 0 
282 29.4329259396 -71.8878173828 -69.8796691895 -30.5504760742 -28.4544159415 3 3.1739915379 -78.2026106543 20.6238020977 17.643337563 59.856815073 0 0 0 0 0 0 0 
283 29.5484099388 -71.9016113281 -69.8934631348 -31.0084228516 -28.4635882971 3 3.1739915379 -78.2026106543 20.6238020977 17.643337563 59.856815073 0 0 0 0 0 0 0 
284 29.6541938782 -71.600479126 -69.5923309326 -30.7210845947 -28.5271339556 3 3.1739914813 -78.2026092598 20.7367967892 17.643337563 59.856815073 0 0 0 0 0 0 0 
285 29.7584719658 -71.9235534668 -69.9154052734 -31.0441589355 -28.5384687451 3 3.1739914813 -78.2026092598 20.7367967892 17.643337563 59.856815073 0 0 0 0 0 0 0 
286 29.8548140526 -71.8769302368 -69.8687820435 -30.9975357056 -28.5305747735 3 3.1739914813 -78.2026092598 20.7367967892 17.643337563 59.856815073 0 0 0 0 0 0 0 
287 29.9566969872 -71.9694137573 -69.961265564 -30.9975357056 -28.5305747735 3 3.17399155912 -78.2026111771 20.5814422489 17.643337563 59.856815073 0 0 0 0 0 0 0 
288 30.0734989643 -71.9558486938 -69.9477005005 -31.0764541626 -28.6686790091 3 2.56890303243 -74.2943112626 20.5813949467 17.643299602 59.856829255 0 0 0 0 0 0 0 
289 30.1746270657 -71.7420425415 -69.7338943481 -31.0764541626 -28.6686790091 3 2.56890310401 -74.2943133326 20.4048365379 17.643299602 59.856829255 0 0 0 0 0 0 0 
290 30.2825088501 -71.72631073 -69.7181625366 -30.8626480103 -28.6215768455 3 2.56890310401 -74.2943133326 20.4048365379 17.643299602 59.856829255 0 0 0 0 0 0 0 
291 30.3874309063 -71.8374710083 -69.8293228149 -30.8469161987 -28.5405715776 3 2.56890310401 -74.2943133326 20.4048365379 17.643299602 59.856829255 0 0 0 0 0 0 0 
292 30.4933030605 -71.6580276489 -69.6498794556 -30.7786331177 -28.4743473105 3 2.56890309026 -74.2943129351 20.4387436817 17.643299602 59.856829255 0 0 0 0 0 0 0 
293 30.5974469185 -71.6444473267 -69.6362991333 -30.7786331177 -28.4743473105 3 2.56890309026 -74.2943129351 20.4387436817 17.643299602 59.856829255 0 0 0 0 0 0 0 
294 30.7042839527 -71.7370529175 -69.7289047241 -30.7650527954 -28.4465498346 3 2.56890309026 -74.2943129351 20.4387436817 17.643299602 59.856829255 0 0 0 0 0 0 0 
295 30.8072559834 -71.745262146 -69.7371139526 -30.8576583862 -28.4144595068 3 2.56890311202 -74.2943135645 20.3850645045 17.643299602 59.856829255 0 0 0 0 0 0 0 
296 30.9042980671 -71.9488525391 -69.9407043457 -31.0694580078 -28.5432024601 3 2.56890311202 -74.2943135645 20.3850645045 17.643299602 59.856829255 0 0 0 0 0 0 0 
297 31.0166099072 -71.7434310913 -69.7352828979 -31.0694580078 -28.5432024601 3 2.56890311202 -74.2943135645 20.3850645045 17.643276865 59.856858358 0 0 0 0 0 0 0 
298 31.1222169399 -71.8888931274 -69.8807449341 -30.8640365601 -28.5453972197 3 0.000527851697621 -71.3802687591 20.5121616943 17.643276865 59.856858358 0 0 0 0 0 0 0 
299 31.2223548889 -71.8545913696 -69.8464431763 -31.0094985962 -28.5936684423 3 0.000527851697621 -71.3802687591 20.5121616943 17.643276865 59.856858358 0 0 0 0 0 0 0 
300 31.3274838924 -71.7925949097 -69.7844467163 -30.9751968384 -28.5630789279 3 0.000527851697621 -71.3802687591 20.5121616943 17.643276865 59.856858358 0 0 0 0 0 0 0 
301 31.4323270321 -71.7457885742 -69.7376403809 -30.9132003784 -28.579992574 3 0.000527851683034 -71.3802667867 20.687259455 17.643276865 59.856858358 0 0 0 0 0 0 0 
302 31.538848877 -71.9026031494 -69.8944549561 -31.0232086182 -28.5476712087 3 0.000527851683034 -71.3802667867 20.687259455 17.643276865 59.856858358 0 0 0 0 0 0 0 
303 31.6497499943 -71.9139251709 -69.9057769775 -31.0232086182 -28.5476712087 3 0.000527851717504 -71.380271448 20.2734693549 17.643276865 59.856858358 0 0 0 0 0 0 0 
304 31.7366230488 -71.8614578247 -69.9057769775 -31.0345306396 -28.5877382532 3 0.000527851717504 -71.380271448 20.2734693549 17.643276865 59.856858358 0 0 0 0 0 0 0 
305 31.8444650173 -71.8695144653 -69.861366272 -30.9820632935 -28.6275439908 3 0.000527851717504 -71.380271448 20.2734693549 17.643276865 59.856858358 0 0 0 0 0 0 0 
306 31.9598128796 -72.0273208618 -70.0191726685 -30.9901199341 -28.6165094131 3 0.000527851703272 -71.3802695231 20.444344243 17.643276865 59.856858358 0 0 0 0 0 0 0 
307 32.0676620007 -71.7475585938 -69.7394104004 -30.8681640625 -28.6134530805 3 -1.01747386322 -68.624074776 20.4443138754 17.643251649 59.856873534 0 0 0 0 0 0 0 
308 32.1697409153 -71.7071990967 -69.6990509033 -30.8278045654 -28.5577629803 3 -1.01747386322 -68.624074776 20.4443138754 17.643251649 59.856873534 0 0 0 0 0 0 0 
309 32.2747650146 -71.9198074341 -69.9116592407 -31.0404129028 -28.524580923 3 -1.01747382602 -68.6240722672 20.6759641257 17.643251649 59.856873534 0 0 0 0 0 0 0 
310 32.3766388893 -71.8907546997 -69.8826065063 -31.0404129028 -28.524580923 3 -1.01747382602 -68.6240722672 20.6759641257 17.643251649 59.856873534 0 0 0 0 0 0 0 
311 32.4758679867 -71.9055252075 -69.8973770142 -31.0113601685 -28.5721940019 3 -1.01747388454 -68.6240762135 20.3115731928 17.643251649 59.856873534 0 0 0 0 0 0 0 
312 32.5812370777 -71.9515838623 -69.9434356689 -31.0261306763 -28.6403292461 3 -1.01747388454 -68.6240762135 20.3115731928 17.643251649 59.856873534 0 0 0 0 0 0 0 
313 32.6951489449 -71.8442153931 -69.8360671997 -31.0721893311 -28.6507995959 3 -1.01747388454 -68.6240762135 20.3115731928 17.643251649 59.856873534 0 0 0 0 0 0 0 
314 32.7976689339 -71.7569656372 -69.7488174438 -30.877571106 -28.5844645789 3 -1.01747388068 -68.6240759534 20.3355942786 17.643251649 59.856873534 0 0 0 0 0 0 0 
315 32.894067049 -71.860786438 -69.8526382446 -30.9813919067 -28.5551753631 3 -1.01747388068 -68.6240759534 20.3355942786 17.643251649 59.856873534 0 0 0 0 0 0 0 
316 32.9974730015 -71.9429626465 -69.9348144531 -30.9813919067 -28.5551753631 3 -1.60944744817 -66.4315341972 20.3355710361 17.643231017 59.8568837 0 0 0 0 0 0 0 
317 33.1136059761 -71.5081558228 -69.9348144531 -31.0635681152 -28.5872351517 3 -1.60944744494 -66.431534064 20.3482753065 17.643231017 59.8568837 0 0 0 0 0 0 0 
318 33.2166349888 -71.9693603516 -69.9612121582 -30.6287612915 -28.4973071361 3 -1.60944744494 -66.431534064 20.3482753065 17.643231017 59.8568837 0 0 0 0 0 0 0 
319 33.3134720325 -71.8071365356 -69.7989883423 -31.0899658203 -28.5313081644 3 -1.60944744494 -66.431534064 20.3482753065 17.643231017 59.8568837 0 0 0 0 0 0 0 
320 33.4278559685 -71.9690093994 -69.9608612061 -30.9277420044 -28.4880713362 3 -1.60944741158 -66.4315326872 20.4796085653 17.643231017 59.8568837 0 0 0 0 0 0 0 
321 33.5317618847 -71.8650970459 -69.8569488525 -31.0896148682 -28.6488133552 3 -1.60944741158 -66.4315326872 20.4796085653 17.643231017 59.8568837 0 0 0 0 0 0 0 
322 33.6380188465 -71.8048095703 -69.8569488525 -30.9857025146 -28.6143845764 3 -1.60944741158 -66.4315326872 20.4796085653 17.643231017 59.8568837 0 0 0 0 0 0 0 
323 33.7467439175 -71.6709289551 -69.6627807617 -30.9254150391 -28.6135823981 3 -1.60944753749 -66.4315378842 19.9838859953 17.643231017 59.8568837 0 0 0 0 0 0 0 
324 33.8324658871 -71.9692764282 -69.9611282349 -31.089881897 -28.5465856331 3 -1.60944753749 -66.4315378842 19.9838859953 17.643231017 59.8568837 0 0 0 0 0 0 0 
325 33.9557249546 -72.0630569458 -70.0549087524 -31.089881897 -28.5465856331 3 -1.60944747902 -66.4315354707 20.214100379 17.643231017 59.8568837 0 0 0 0 0 0 0 
326 34.0568330288 -72.013343811 -70.0051956177 -31.1836624146 -28.6295655068 3 -1.62413568211 -64.2402653974 20.2140777891 17.64320888 59.856888811 0 0 0 0 0 0 0 
327 34.1606638432 -71.7858505249 -69.7777023315 -31.1339492798 -28.7498871627 3 -1.62413568211 -64.2402653974 20.2140777891 17.64320888 59.856888811 0 0 0 0 0 0 0 
328 34.2664399147 -71.6968231201 -69.6886749268 -30.8174285889 -28.562956858 3 -1.62413561912 -64.2402629062 20.4598137404 17.64320888 59.856888811 0 0 0 0 0 0 0 
329 34.3691658974 -71.8037796021 -69.7956314087 -30.8174285889 -28.562956858 3 -1.62413561912 -64.2402629062 20.4598137404 17.64320888 59.856888811 0 0 0 0 0 0 0 
330 34.4675719738 -71.6978683472 -69.6897201538 -30.8184738159 -28.4672463911 3 -1.62413561912 -64.2402629062 20.4598137404 17.64320888 59.856888811 0 0 0 0 0 0 0 
331 34.5806469917 -71.7099838257 -69.7018356323 -30.8305892944 -28.4716965167 3 -1.62413572772 -64.2402672015 20.0361293566 17.64320888 59.856888811 0 0 0 0 0 0 0 
332 34.6878230572 -71.7472686768 -69.7391204834 -30.8305892944 -28.4716965167 3 -1.62413572772 -64.2402672015 20.0361293566 17.64320888 59.856888811 0 0 0 0 0 0 0 
333 34.7813658714 -71.6546478271 -69.6464996338 -30.8678741455 -28.4532712313 3 -1.62413568392 -64.2402654691 20.2070106848 17.64320888 59.856888811 0 0 0 0 0 0 0 
334 34.9000689983 -71.7244949341 -69.7163467407 -30.8451004028 -28.4434443044 3 -1.62413568392 -64.2402654691 20.2070106848 17.64320888 59.856888811 0 0 0 0 0 0 0 
335 34.999753952 -71.9785842896 -69.9704360962 -30.8451004028 -28.4434443044 3 -2.4968739978 -62.6705279527 20.2069952488 17.643195289 59.856900018 0 0 0 0 0 0 0 
336 35.0954189301 -71.8982849121 -69.8901367188 -31.0991897583 -28.5165040625 3 -2.49687396051 -62.6705270168 20.3016262196 17.643195289 59.856900018 0 0 0 0 0 0 0 
337 35.2149028778 -71.8341217041 -69.8259735107 -31.0188903809 -28.5995144049 3 -2.49687396051 -62.6705270168 20.3016262196 17.643195289 59.856900018 0 0 0 0 0 0 0 
338 35.319453001 -71.9901733398 -69.9820251465 -30.9547271729 -28.63785967 3 -2.49687396051 -62.6705270168 20.3016262196 17.643195289 59.856900018 0 0 0 0 0 0 0 
339 35.4231729507 -71.9402160645 -69.9320678711 -31.1107788086 -28.6415835509 3 -2.49687389483 -62.6705253683 20.4683002519 17.643195289 59.856900018 0 0 0 0 0 0 0 
340 35.5242898464 -71.7728652954 -69.7647171021 -31.0608215332 -28.6555241802 3 -2.49687389483 -62.6705253683 20.4683002519 17.643195289 59.856900018 0 0 0 0 0 0 0 
341 35.6292109489 -71.7373199463 -69.7291717529 -30.8934707642 -28.6340802289 3 -2.49687389483 -62.6705253683 20.4683002519 17.643195289 59.856900018 0 0 0 0 0 0 0 
342 35.7359559536 -71.8948440552 -69.8866958618 -30.857925415 -28.5500131585 3 -2.49687395326 -62.6705268349 20.3200097577 17.643195289 59.856900018 0 0 0 0 0 0 0 
343 35.826679945 -71.7962036133 -69.7880554199 -31.0154495239 -28.5356340245 3 -2.49687395326 -62.6705268349 20.3200097577 17.643195289 59.856900018 0 0 0 0 0 0 0 
344 35.9367740154 -71.7500762939 -69.7419281006 -30.916809082 -28.5434855741 3 -2.49687395326 -62.6705268349 20.3200097577 17.643195289 59.856900018 0 0 0 0 0 0 0 
345 36.0478689671 -71.7601852417 -69.7520370483 -30.8706817627 -28.5478708995 3 -4.33092971566 -61.5871900551 20.3990659547 17.643189148 59.856918532 0 0 0 0 0 0 0 
346 36.1534700394 -71.6811828613 -69.673034668 -30.8017883301 -28.4651959296 3 -4.33092971566 -61.5871900551 20.3990659547 17.643189148 59.856918532 0 0 0 0 0 0 0 
347 36.2583720684 -71.991104126 -69.9829559326 -31.1117095947 -28.5418855448 3 -4.33092953708 -61.5871875157 20.6603462527 17.643189148 59.856918532 0 0 0 0 0 0 0 
348 36.3704819679 -71.816696167 -69.8085479736 -30.9373016357 -28.5609673444 3 -4.33092953708 -61.5871875157 20.6603462527 17.643189148 59.856918532 0 0 0 0 0 0 0 
349 36.4663500786 -71.784286499 -69.7761383057 -30.9373016357 -28.5609673444 3 -4.33092953708 -61.5871875157 20.6603462527 17.643189148 59.856918532 0 0 0 0 0 0 0 
350 36.5711069107 -71.6846389771 -69.6764907837 -30.9048919678 -28.5971460538 3 -4.33092966738 -61.5871893686 20.4696991525 17.643189148 59.856918532 0 0 0 0 0 0 0 
351 36.6794428825 -71.6542282104 -69.6460800171 -30.8052444458 -28.496142701 3 -4.33092966738 -61.5871893686 20.4696991525 17.643189148 59.856918532 0 0 0 0 0 0 0 
352 36.7800009251 -71.900970459 -69.8928222656 -30.7748336792 -28.4420100237 3 -4.33092966738 -61.5871893686 20.4696991525 17.643189148 59.856918532 0 0 0 0 0 0 0 
353 36.876680851 -71.9477767944 -69.9396286011 -31.0215759277 -28.4788652373 3 -4.33092982569 -61.5871916199 20.2380729073 17.643189148 59.856918532 0 0 0 0 0 0 0 
354 36.9816708565 -71.90990448 -69.9017562866 -31.0683822632 -28.5654596764 3 -5.16615487113 -61.0935065107 20.238068755 17.643186348 59.856926964 0 0 0 0 0 0 0 
355 37.1025910378 -71.942276001 -69.9341278076 -31.0305099487 -28.654455164 3 -5.1661547721 -61.0935053395 20.3595403261 17.643186348 59.856926964 0 0 0 0 0 0 0 
356 37.2015600204 -71.7804489136 -69.7723007202 -31.0628814697 -28.6682539001 3 -5.1661547721 -61.0935053395 20.3595403261 17.643186348 59.856926964 0 0 0 0 0 0 0 
357 37.2960438728 -71.893951416 -69.8858032227 -30.9010543823 -28.6114097142 3 -5.1661547721 -61.0935053395 20.3595403261 17.643186348 59.856926964 0 0 0 0 0 0 0 
358 37.4013359547 -71.8297958374 -69.821647644 -31.0145568848 -28.6061604877 3 -5.16615507149 -61.09350888 19.9923247712 17.643186348 59.856926964 0 0 0 0 0 0 0 
359 37.5193929672 -71.8305511475 -69.8224029541 -30.9504013062 -28.5692346384 3 -5.16615507149 -61.09350888 19.9923247712 17.643186348 59.856926964 0 0 0 0 0 0 0 
360 37.6201720238 -71.9250793457 -69.9169311523 -30.9511566162 -28.5862245231 3 -5.16615507149 -61.09350888 19.9923247712 17.643186348 59.856926964 0 0 0 0 0 0 0 
361 37.7273020744 -71.726020813 -69.7178726196 -30.8466262817 -28.5606934789 3 -5.16615465007 -61.0935038964 20.5092137996 17.643186348 59.856926964 0 0 0 0 0 0 0 
362 37.8309988976 -71.9428024292 -69.9346542358 -30.8466262817 -28.5606934789 3 -5.16615465007 -61.0935038964 20.5092137996 17.643186348 59.856926964 0 0 0 0 0 0 0 
363 37.9500210285 -71.8650970459 -69.8569488525 -31.0634078979 -28.5973867192 3 -5.16615485386 -61.0935063064 20.2592501274 17.643186348 59.856926964 0 0 0 0 0 0 0 
364 38.0314538479 -71.826171875 -69.8180236816 -30.9467773438 -28.6124832861 3 -5.16615485386 -61.0935063064 20.2592501274 17.643186348 59.856926964 0 0 0 0 0 0 0 
365 38.1407458782 -71.9931716919 -69.9850234985 -30.9467773438 -28.6124832861 3 -4.83580423342 -59.6395114735 20.2592360145 17.643170765 59.856927379 0 0 0 0 0 0 0 
366 38.2526049614 -71.8170700073 -69.808921814 -31.1137771606 -28.6286480347 3 -4.83580423342 -59.6395114735 20.2592360145 17.643170765 59.856927379 0 0 0 0 0 0 0 
367 38.3530929089 -71.7690048218 -69.808921814 -30.9376754761 -28.6123080575 3 -4.83580436815 -59.6395131351 20.0826971919 17.643170765 59.856927379 0 0 0 0 0 0 0 
